{
  "type": "FeatureCollection",
  "features": [
    {
      "type": "Feature",
      "properties": {
          "name":"Waterdeep",
          "style":"city"
      },
      "geometry": {
        "type": "Point",
        "coordinates": [-74.81632079967918, 38.63250256772329]
      }
    },
    {
      "type": "Feature",
      "properties": {
          "name":"Neverwinter",
          "style":"city"
      },
      "geometry": {
        "type": "Point",
        "coordinates": [-78.15164102622185, 42.40079024987824]
      }
    },
    {
      "type": "Feature",
      "properties": {
          "name":"Luskan",
          "style":"city"
      },
      "geometry": {
        "type": "Point",
        "coordinates": [-78.79742452523175, 44.450750885576696]
      }
    },
    {
      "type": "Feature",
      "properties": {
          "name":"Baldur's Gate",
          "style":"city"
      },
      "geometry": {
        "type": "Point",
        "coordinates": [-70.60290749930321, 30.545202102349634]
      }
    },
    {
      "type": "Feature",
      "properties": {
          "name":"Athkatla",
          "style":"city"
      },
      "geometry": {
        "type": "Point",
        "coordinates": [-70.50259876224578,23.98776578069659]
      }
    },
    {
      "type": "Feature",
      "properties": {
          "name":"Murann",
          "style":"city"
      },
      "geometry": {
        "type": "Point",
        "coordinates": [-69.65352498242198,20.680930318604226]
      }
    },
    {
      "type": "Feature",
      "properties": {
          "name":"Velen",
          "style":"city"
      },
      "geometry": {
        "type": "Point",
        "coordinates": [-74.486031273395,20.447780354543255]
      }
    },
    {
      "type": "Feature",
      "properties": {
          "name":"Zazesspur",
          "style":"city"
      },
      "geometry": {
        "type": "Point",
        "coordinates": [-68.04533637402983,16.47716497387644]
      }
    }
  ]
}



