{
  "type": "FeatureCollection",
  "features": [{
      "type": "Feature",
      "properties": {
        "name": "Waterdeep",
        "style": "city"
      },
      "geometry": {
        "type": "Point",
        "coordinates": [-74.81632079967918, 38.63250256772329]
      }
    },
    {
      "type": "Feature",
      "properties": {
        "name": "Neverwinter",
        "style": "city"
      },
      "geometry": {
        "type": "Point",
        "coordinates": [-78.15164102622185, 42.40079024987824]
      }
    },
    {
      "type": "Feature",
      "properties": {
        "name": "Luskan",
        "style": "city"
      },
      "geometry": {
        "type": "Point",
        "coordinates": [-78.79742452523175, 44.450750885576696]
      }
    },
    {
      "type": "Feature",
      "properties": {
        "name": "Baldur's Gate",
        "style": "city"
      },
      "geometry": {
        "type": "Point",
        "coordinates": [-70.60290749930321, 30.545202102349634]
      }
    },
    {
      "type": "Feature",
      "properties": {
        "name": "Athkatla",
        "style": "city"
      },
      "geometry": {
        "type": "Point",
        "coordinates": [-70.50259876224578, 23.98776578069659]
      }
    },
    {
      "type": "Feature",
      "properties": {
        "name": "Murann",
        "style": "city"
      },
      "geometry": {
        "type": "Point",
        "coordinates": [-69.65352498242198, 20.680930318604226]
      }
    },
    {
      "type": "Feature",
      "properties": {
        "name": "Velen",
        "style": "city"
      },
      "geometry": {
        "type": "Point",
        "coordinates": [-74.486031273395, 20.447780354543255]
      }
    },
    {
      "type": "Feature",
      "properties": {
        "name": "Zazesspur",
        "style": "city"
      },
      "geometry": {
        "type": "Point",
        "coordinates": [-68.04533637402983, 16.47716497387644]
      }
    },
    {
      "type": "Feature",
      "properties": {
        "name": "Corwell",
        "style": "city"
      },
      "geometry": {
        "type": "Point",
        "coordinates": [-82.10682146105584, 25.53641836131942]
      }
    },
    {
      "type": "Feature",
      "properties": {
        "name": "Myratma",
        "style": "city"
      },
      "geometry": {
        "type": "Point",
        "coordinates": [-67.52942700509513, 14.039689790000267]
      }
    },
    {
      "type": "Feature",
      "properties": {
        "name": "Memnon",
        "style": "city"
      },
      "geometry": {
        "type": "Point",
        "coordinates": [-68.52643625082962, 13.318203670298885]
      }
    },
    {
      "type": "Feature",
      "properties": {
        "name": "Darrowmar",
        "style": "city"
      },
      "geometry": {
        "type": "Point",
        "coordinates": [-63.40076771695138, 15.2505144185984]
      }
    },
    {
      "type": "Feature",
      "properties": {
        "name": "Mintar",
        "style": "city"
      },
      "geometry": {
        "type": "Point",
        "coordinates": [-55.62207431032116, 13.53982653580745]
      }
    },
    {
      "type": "Feature",
      "properties": {
        "name": "Saelmur",
        "style": "city"
      },
      "geometry": {
        "type": "Point",
        "coordinates": [-53.162156988166814, 13.359573323266574]
      }
    },
    {
      "type": "Feature",
      "properties": {
        "name": "Ankhapur",
        "style": "city"
      },
      "geometry": {
        "type": "Point",
        "coordinates": [-50.634844670884924, 14.030727744667075]
      }
    },
    {
      "type": "Feature",
      "properties": {
        "name": "Surkh",
        "style": "city"
      },
      "geometry": {
        "type": "Point",
        "coordinates": [-50.83702965626748, 19.89383420391637]
      }
    },
    {
      "type": "Feature",
      "properties": {
        "name": "Nimpeth",
        "style": "city"
      },
      "geometry": {
        "type": "Point",
        "coordinates": [-45.85400515326558, 18.63836093680787]
      }
    },
    {
      "type": "Feature",
      "properties": {
        "name": "Mimph",
        "style": "city"
      },
      "geometry": {
        "type": "Point",
        "coordinates": [-44.7790610904313, 18.49868799156546]
      }
    },
    {
      "type": "Feature",
      "properties": {
        "name": "Arrabar",
        "style": "city"
      },
      "geometry": {
        "type": "Point",
        "coordinates": [-44.15160540371749, 18.820694143321504]
      }
    },
    {
      "type": "Feature",
      "properties": {
        "name": "Purskul",
        "style": "city"
      },
      "geometry": {
        "type": "Point",
        "coordinates": [-68.41763891960314, 23.844875636312764]
      }
    },
    {
      "type": "Feature",
      "properties": {
        "name": "Veldinaar",
        "style": "town"
      },
      "geometry": {
        "type": "Point",
        "coordinates": [-71.71083477624204, 29.209963485815294]
      }
    }
  ]
}